pays,source,code,garder,name_sort,name_alt,type,sovereignt,code sovereignt,formal name,note_brk,economy,income_grp,,continent,region_un,subregion,region_wb,Long,Lat
Aruba,,ABW,,Aruba,NA,Country,Netherlands,NL1,Aruba,NA,6. Developing region,2. High income: nonOECD,,North America,Americas,Caribbean,Latin America & Caribbean,-69.9886944904915,12.52373046875
Afghanistan,,AFG,,Afghanistan,NA,Sovereign country,Afghanistan,AFG,Islamic State of Afghanistan,NA,7. Least developed region,5. Low income,,Asia,Asia,Southern Asia,South Asia,65.1934520413799,33.9240478515625
Angola,,AGO,,Angola,NA,Sovereign country,Angola,AGO,People's Republic of Angola,NA,7. Least developed region,3. Upper middle income,,Africa,Africa,Middle Africa,Sub-Saharan Africa,18.8593452738668,-11.92041015625
Anguilla,,AIA,,Anguilla,NA,Dependency,United Kingdom,GB1,NA,NA,6. Developing region,3. Upper middle income,,North America,Americas,Caribbean,Latin America & Caribbean,-63.0843486933745,18.21103515625
Albania,,ALB,,Albania,NA,Sovereign country,Albania,ALB,Republic of Albania,NA,6. Developing region,4. Lower middle income,,Europe,Europe,Southern Europe,Europe & Central Asia,20.0041824198095,41.1821044921875
Aland,,ALD,,Aland,NA,Country,Finland,FI1,Åland Islands,NA,2. Developed region: nonG7,1. High income: OECD,,Europe,Europe,Northern Europe,Europe & Central Asia,20.0520349317663,60.2471435546875
Andorra,,AND,,Andorra,NA,Sovereign country,Andorra,AND,Principality of Andorra,NA,2. Developed region: nonG7,2. High income: nonOECD,,Europe,Europe,Southern Europe,Europe & Central Asia,1.57208376514669,42.539599609375
United Arab Emirates,,ARE,,United Arab Emirates,NA,Sovereign country,United Arab Emirates,ARE,United Arab Emirates,NA,6. Developing region,2. High income: nonOECD,,Asia,Asia,Western Asia,Middle East & North Africa,55.1254282263583,24.3441162109375
Argentina,,ARG,,Argentina,NA,Sovereign country,Argentina,ARG,Argentine Republic,NA,5. Emerging region: G20,3. Upper middle income,,South America,Americas,South America,Latin America & Caribbean,-63.9713271862978,-37.08564453125
Armenia,,ARM,,Armenia,NA,Sovereign country,Armenia,ARM,Republic of Armenia,NA,6. Developing region,4. Lower middle income,,Asia,Asia,Western Asia,Europe & Central Asia,44.8365940426354,40.0874755859375
American Samoa,,ASM,,American Samoa,NA,Dependency,United States of America,US1,American Samoa,NA,6. Developing region,3. Upper middle income,,Oceania,Oceania,Polynesia,East Asia & Pacific,-170.719184209177,-14.29716796875
Ashmore and Cartier Islands,,ATC,,Ashmore and Cartier Islands,NA,Dependency,Australia,AU1,Territory of Ashmore and Cartier Islands,NA,7. Least developed region,5. Low income,,Oceania,Oceania,Australia and New Zealand,East Asia & Pacific,123.583837890625,-12.429931640625
French Southern and Antarctic Lands,,ATF,,French Southern and Antarctic Lands,NA,Dependency,France,FR1,Territory of the French Southern and Antarctic Lands,NA,6. Developing region,2. High income: nonOECD,,Seven seas (open ocean),Seven seas (open ocean),Seven seas (open ocean),Sub-Saharan Africa,70.2385538484901,-49.1869140625
Antigua and Barbuda,,ATG,,Antigua and Barbuda,NA,Sovereign country,Antigua and Barbuda,ATG,Antigua and Barbuda,NA,6. Developing region,3. Upper middle income,,North America,Americas,Caribbean,Latin America & Caribbean,-61.7856562968476,17.083984375
Australia,,AUS,,Australia,NA,Country,Australia,AU1,Commonwealth of Australia,NA,2. Developed region: nonG7,1. High income: OECD,,Oceania,Oceania,Australia and New Zealand,East Asia & Pacific,133.076505740872,-24.933984375
Austria,,AUT,,Austria,NA,Sovereign country,Austria,AUT,Republic of Austria,NA,2. Developed region: nonG7,1. High income: OECD,,Europe,Europe,Western Europe,Europe & Central Asia,14.7520721964705,47.700732421875
Azerbaijan,,AZE,,Azerbaijan,NA,Sovereign country,Azerbaijan,AZE,Republic of Azerbaijan,NA,6. Developing region,3. Upper middle income,,Asia,Asia,Western Asia,Europe & Central Asia,47.7315071004882,40.13974609375
Burundi,,BDI,,Burundi,NA,Sovereign country,Burundi,BDI,Republic of Burundi,NA,7. Least developed region,5. Low income,,Africa,Africa,Eastern Africa,Sub-Saharan Africa,29.9143681530327,-3.37753906250001
Belgium,,BEL,,Belgium,NA,Sovereign country,Belgium,BEL,Kingdom of Belgium,NA,2. Developed region: nonG7,1. High income: OECD,,Europe,Europe,Western Europe,Europe & Central Asia,4.79757103014098,50.50341796875
Benin,,BEN,,Benin,NA,Sovereign country,Benin,BEN,Republic of Benin,NA,7. Least developed region,5. Low income,,Africa,Africa,Western Africa,Sub-Saharan Africa,2.27917536013942,9.30280761718749
Burkina Faso,,BFA,,Burkina Faso,NA,Sovereign country,Burkina Faso,BFA,Burkina Faso,NA,7. Least developed region,5. Low income,,Africa,Africa,Western Africa,Sub-Saharan Africa,-1.20254089506,12.2522216796875
Bangladesh,,BGD,,Bangladesh,NA,Sovereign country,Bangladesh,BGD,People's Republic of Bangladesh,NA,7. Least developed region,5. Low income,,Asia,Asia,Southern Asia,South Asia,89.8681948123376,23.6806884765625
Bulgaria,,BGR,,Bulgaria,NA,Sovereign country,Bulgaria,BGR,Republic of Bulgaria,NA,2. Developed region: nonG7,3. Upper middle income,,Europe,Europe,Eastern Europe,Europe & Central Asia,25.1591197778147,42.7331787109375
Bahrain,,BHR,,Bahrain,NA,Sovereign country,Bahrain,BHR,Kingdom of Bahrain,NA,6. Developing region,2. High income: nonOECD,,Asia,Asia,Western Asia,Middle East & North Africa,50.5490281810087,26.0303955078125
The Bahamas,,BHS,,"Bahamas, The",NA,Sovereign country,The Bahamas,BHS,Commonwealth of the Bahamas,NA,6. Developing region,2. High income: nonOECD,,North America,Americas,Caribbean,Latin America & Caribbean,-78.376231186762,26.6482666015625
Bosnia and Herzegovina,,BIH,,Bosnia and Herzegovina,NA,Sovereign country,Bosnia and Herzegovina,BIH,Bosnia and Herzegovina,NA,6. Developing region,3. Upper middle income,,Europe,Europe,Southern Europe,Europe & Central Asia,17.9220639340604,43.9282470703125
Saint Barthelemy,,BLM,,St-Barthélemy,NA,Dependency,France,FR1,Saint-Barthélemy,NA,2. Developed region: nonG7,1. High income: OECD,,North America,Americas,Caribbean,Latin America & Caribbean,-62.837243634046,17.9036376953125
Belarus,,BLR,,Belarus,NA,Sovereign country,Belarus,BLR,Republic of Belarus,NA,6. Developing region,3. Upper middle income,,Europe,Europe,Eastern Europe,Europe & Central Asia,27.9389834299395,53.7370849609375
Belize,,BLZ,,Belize,NA,Sovereign country,Belize,BLZ,Belize,NA,6. Developing region,4. Lower middle income,,North America,Americas,Central America,Latin America & Caribbean,-88.737346800695,17.1384033203125
Bermuda,,BMU,,Bermuda,NA,Dependency,United Kingdom,GB1,The Bermudas or Somers Isles,NA,2. Developed region: nonG7,2. High income: nonOECD,,North America,Americas,Northern America,North America,-64.7148084412062,32.34482421875
Bolivia,,BOL,,Bolivia,NA,Sovereign country,Bolivia,BOL,Plurinational State of Bolivia,NA,5. Emerging region: G20,4. Lower middle income,,South America,Americas,South America,Latin America & Caribbean,-64.0657771978344,-16.301953125
Brazil,,BRA,,Brazil,NA,Sovereign country,Brazil,BRA,Federative Republic of Brazil,NA,3. Emerging region: BRIC,3. Upper middle income,,South America,Americas,South America,Latin America & Caribbean,-49.7230219662385,-14.22392578125
Barbados,,BRB,,Barbados,NA,Sovereign country,Barbados,BRB,Barbados,NA,6. Developing region,2. High income: nonOECD,,North America,Americas,Caribbean,Latin America & Caribbean,-59.5505818034894,13.1748046875
Brunei,,BRN,,Brunei,NA,Sovereign country,Brunei,BRN,Negara Brunei Darussalam,NA,6. Developing region,2. High income: nonOECD,,Asia,Asia,South-Eastern Asia,East Asia & Pacific,114.490968843643,4.50241699218751
Bhutan,,BTN,,Bhutan,NA,Sovereign country,Bhutan,BTN,Kingdom of Bhutan,NA,7. Least developed region,4. Lower middle income,,Asia,Asia,Southern Asia,South Asia,90.3270161478006,27.5057373046875
Botswana,,BWA,,Botswana,NA,Sovereign country,Botswana,BWA,Republic of Botswana,NA,6. Developing region,3. Upper middle income,,Africa,Africa,Southern Africa,Sub-Saharan Africa,24.4786858166271,-22.336767578125
Central African Republic,,CAF,,Central African Republic,NA,Sovereign country,Central African Republic,CAF,Central African Republic,NA,7. Least developed region,5. Low income,,Africa,Africa,Middle Africa,Sub-Saharan Africa,20.6186586796947,6.59550781249999
Canada,,CAN,,Canada,NA,Sovereign country,Canada,CAN,Canada,NA,1. Developed region: G7,1. High income: OECD,,North America,Americas,Northern America,North America,-110.42654702242,56.8257568359375
Switzerland,,CHE,,Switzerland,NA,Sovereign country,Switzerland,CHE,Swiss Confederation,NA,2. Developed region: nonG7,1. High income: OECD,,Europe,Europe,Western Europe,Europe & Central Asia,8.42342305684592,46.79384765625
Chile,,CHL,,Chile,NA,Sovereign country,Chile,CHL,Republic of Chile,NA,5. Emerging region: G20,3. Upper middle income,,South America,Americas,South America,Latin America & Caribbean,-71.5023052032358,-35.684423828125
China,,CHN,,China,NA,Country,China,CH1,People's Republic of China,NA,3. Emerging region: BRIC,3. Upper middle income,,Asia,Asia,Eastern Asia,East Asia & Pacific,98.5821741415082,36.898583984375
Ivory Coast,,CIV,,Côte d'Ivoire,NA,Sovereign country,Ivory Coast,CIV,Republic of Ivory Coast,NA,6. Developing region,4. Lower middle income,,Africa,Africa,Western Africa,Sub-Saharan Africa,-5.69514686455157,7.5317138671875
Cameroon,,CMR,,Cameroon,NA,Sovereign country,Cameroon,CMR,Republic of Cameroon,NA,6. Developing region,4. Lower middle income,,Africa,Africa,Middle Africa,Sub-Saharan Africa,13.6139882787448,7.379443359375
Democratic Republic of the Congo,,COD,,"Congo, Dem. Rep.",NA,Sovereign country,Democratic Republic of the Congo,COD,Democratic Republic of the Congo,NA,7. Least developed region,5. Low income,,Africa,Africa,Middle Africa,Sub-Saharan Africa,22.4366678292411,-4.05947265625001
Republic of Congo,,COG,,"Congo, Rep.",NA,Sovereign country,Republic of Congo,COG,Republic of Congo,NA,6. Developing region,4. Lower middle income,,Africa,Africa,Middle Africa,Sub-Saharan Africa,16.0403689558901,-0.696679687500009
Cook Islands,,COK,,Cook Islands,NA,Dependency,New Zealand,NZ1,NA,NA,6. Developing region,3. Upper middle income,,Oceania,Oceania,Polynesia,East Asia & Pacific,-159.788648735576,-21.218603515625
Colombia,,COL,,Colombia,NA,Sovereign country,Colombia,COL,Republic of Colombia,NA,6. Developing region,3. Upper middle income,,South America,Americas,South America,Latin America & Caribbean,-72.5870088744902,4.10874023437501
Comoros,,COM,,Comoros,NA,Sovereign country,Comoros,COM,Union of the Comoros,NA,7. Least developed region,5. Low income,,Africa,Africa,Eastern Africa,Sub-Saharan Africa,44.3934193531826,-12.1962890625
Cape Verde,,CPV,,Cape Verde,NA,Sovereign country,Cape Verde,CPV,Republic of Cape Verde,NA,6. Developing region,4. Lower middle income,,Africa,Africa,Western Africa,Sub-Saharan Africa,-25.1738050136771,17.0585205078125
Costa Rica,,CRI,,Costa Rica,NA,Sovereign country,Costa Rica,CRI,Republic of Costa Rica,NA,5. Emerging region: G20,3. Upper middle income,,North America,Americas,Central America,Latin America & Caribbean,-83.6552445490963,9.6333740234375
Cuba,,CUB,,Cuba,NA,Sovereign country,Cuba,CUB,Republic of Cuba,NA,5. Emerging region: G20,3. Upper middle income,,North America,Americas,Caribbean,Latin America & Caribbean,-77.9579166775843,21.526708984375
Curaçao,,CUW,,Curaçao,NA,Country,Netherlands,NL1,Curaçao,NA,6. Developing region,2. High income: nonOECD,,North America,Americas,Caribbean,Latin America & Caribbean,-68.9845967134881,12.1949462890625
Cayman Islands,,CYM,,Cayman Islands,NA,Dependency,United Kingdom,GB1,Cayman Islands,NA,5. Emerging region: G20,2. High income: nonOECD,,North America,Americas,Caribbean,Latin America & Caribbean,-81.2622572148597,19.317333984375
Northern Cyprus,,CYN,,"Cyprus, Northern",NA,Sovereign country,Northern Cyprus,CYN,Turkish Republic of Northern Cyprus, Claimed by Cyprus,6. Developing region,3. Upper middle income,,Asia,Asia,Western Asia,Europe & Central Asia,33.4555644651408,35.31396484375
Cyprus,,CYP,,Cyprus,NA,Sovereign country,Cyprus,CYP,Republic of Cyprus,NA,6. Developing region,2. High income: nonOECD,,Asia,Asia,Western Asia,Europe & Central Asia,32.9776082278254,34.8798828125
Czech Republic,,CZE,,Czech Republic,NA,Sovereign country,Czech Republic,CZE,Czech Republic,NA,2. Developed region: nonG7,1. High income: OECD,,Europe,Europe,Eastern Europe,Europe & Central Asia,15.5146456831155,49.809033203125
Germany,,DEU,,Germany,NA,Sovereign country,Germany,DEU,Federal Republic of Germany,NA,1. Developed region: G7,1. High income: OECD,,Europe,Europe,Western Europe,Europe & Central Asia,10.4751821925566,51.0759033203125
Djibouti,,DJI,,Djibouti,NA,Sovereign country,Djibouti,DJI,Republic of Djibouti,NA,7. Least developed region,4. Lower middle income,,Africa,Africa,Eastern Africa,Middle East & North Africa,42.3997826739462,11.784228515625
Dominica,,DMA,,Dominica,NA,Sovereign country,Dominica,DMA,Commonwealth of Dominica,NA,6. Developing region,3. Upper middle income,,North America,Americas,Caribbean,Latin America & Caribbean,-61.3573702522605,15.4625
Denmark,,DNK,,Denmark,NA,Country,Denmark,DN1,Kingdom of Denmark,NA,2. Developed region: nonG7,1. High income: OECD,,Europe,Europe,Northern Europe,Europe & Central Asia,9.26378456894488,56.2638671875
Dominican Republic,,DOM,,Dominican Republic,NA,Sovereign country,Dominican Republic,DOM,Dominican Republic,NA,6. Developing region,3. Upper middle income,,North America,Americas,Caribbean,Latin America & Caribbean,-70.1239821690911,18.76806640625
Algeria,,DZA,,Algeria,NA,Sovereign country,Algeria,DZA,People's Democratic Republic of Algeria,NA,6. Developing region,3. Upper middle income,,Africa,Africa,Northern Africa,Middle East & North Africa,0.595445009684189,27.9718505859375
Ecuador,,ECU,,Ecuador,NA,Sovereign country,Ecuador,ECU,Republic of Ecuador,NA,6. Developing region,3. Upper middle income,,South America,Americas,South America,Latin America & Caribbean,-78.2829813936648,-1.775537109375
Egypt,,EGY,,"Egypt, Arab Rep.",NA,Sovereign country,Egypt,EGY,Arab Republic of Egypt,NA,5. Emerging region: G20,4. Lower middle income,,Africa,Africa,Northern Africa,Middle East & North Africa,29.4552587015398,26.8239501953125
Eritrea,,ERI,,Eritrea,NA,Sovereign country,Eritrea,ERI,State of Eritrea,NA,7. Least developed region,5. Low income,,Africa,Africa,Eastern Africa,Sub-Saharan Africa,38.1052066627376,15.176611328125
Spain,,ESP,,Spain,NA,Sovereign country,Spain,ESP,Kingdom of Spain,NA,2. Developed region: nonG7,1. High income: OECD,,Europe,Europe,Southern Europe,Europe & Central Asia,-3.48714501771276,39.9065185546875
Estonia,,EST,,Estonia,NA,Sovereign country,Estonia,EST,Republic of Estonia,NA,2. Developed region: nonG7,1. High income: OECD,,Europe,Europe,Northern Europe,Europe & Central Asia,25.5018328920469,58.6171875
Ethiopia,,ETH,,Ethiopia,NA,Sovereign country,Ethiopia,ETH,Federal Democratic Republic of Ethiopia,NA,7. Least developed region,5. Low income,,Africa,Africa,Eastern Africa,Sub-Saharan Africa,38.9375677607828,9.1846435546875
Finland,,FIN,,Finland,NA,Country,Finland,FI1,Republic of Finland,NA,2. Developed region: nonG7,1. High income: OECD,,Europe,Europe,Northern Europe,Europe & Central Asia,27.4394952392579,64.9337158203125
Fiji,,FJI,,Fiji,NA,Sovereign country,Fiji,FJI,Republic of Fiji,NA,6. Developing region,4. Lower middle income,,Oceania,Oceania,Melanesia,East Asia & Pacific,177.977713509185,-17.80302734375
Falkland Islands,,FLK,,Falkland Islands,Islas Malvinas,Dependency,United Kingdom,GB1,Falkland Islands, Claimed by Argentina,2. Developed region: nonG7,1. High income: OECD,,South America,Americas,South America,Latin America & Caribbean,-58.7698894087049,-51.80146484375
France,,FRA,,France,NA,Country,France,FR1,French Republic,NA,1. Developed region: G7,1. High income: OECD,,Europe,Europe,Western Europe,Europe & Central Asia,2.19446669344054,46.7201171875
Faroe Islands,,FRO,,Faeroe Islands,NA,Dependency,Denmark,DN1,Føroyar Is. (Faeroe Is.),NA,2. Developed region: nonG7,2. High income: nonOECD,,Europe,Europe,Northern Europe,Europe & Central Asia,-7.23485830865551,62.0876708984375
Federated States of Micronesia,,FSM,,"Micronesia, Federated States of",NA,Sovereign country,Federated States of Micronesia,FSM,Federated States of Micronesia,NA,6. Developing region,4. Lower middle income,,Oceania,Oceania,Micronesia,East Asia & Pacific,158.242244854284,6.88798828125005
Gabon,,GAB,,Gabon,NA,Sovereign country,Gabon,GAB,Gabonese Republic,NA,6. Developing region,3. Upper middle income,,Africa,Africa,Middle Africa,Sub-Saharan Africa,11.6263544102664,-0.856201171875
United Kingdom,,GBR,,United Kingdom,NA,Country,United Kingdom,GB1,United Kingdom of Great Britain and Northern Ireland,NA,1. Developed region: G7,1. High income: OECD,,Europe,Europe,Northern Europe,Europe & Central Asia,-1.95764807185372,54.3503662109375
Georgia,,GEO,,Georgia,NA,Sovereign country,Georgia,GEO,Georgia,NA,6. Developing region,4. Lower middle income,,Asia,Asia,Western Asia,Europe & Central Asia,43.636881953733,42.296044921875
Guernsey,,GGY,,Guernsey,NA,Country,United Kingdom,GB1,Bailiwick of Guernsey,NA,2. Developed region: nonG7,2. High income: nonOECD,,Europe,Europe,Northern Europe,Europe & Central Asia,-2.58675221972365,49.4595703125
Ghana,,GHA,,Ghana,NA,Sovereign country,Ghana,GHA,Republic of Ghana,NA,6. Developing region,4. Lower middle income,,Africa,Africa,Western Africa,Sub-Saharan Africa,-1.06849137137602,7.97707519531249
Guinea,,GIN,,Guinea,NA,Sovereign country,Guinea,GIN,Republic of Guinea,NA,7. Least developed region,5. Low income,,Africa,Africa,Western Africa,Sub-Saharan Africa,-9.67245433143329,9.94924316406249
Gambia,,GMB,,"Gambia, The",NA,Sovereign country,Gambia,GMB,Republic of the Gambia,NA,7. Least developed region,5. Low income,,Africa,Africa,Western Africa,Sub-Saharan Africa,-14.3599463677641,13.4417724609375
Guinea Bissau,,GNB,,Guinea-Bissau,NA,Sovereign country,Guinea Bissau,GNB,Republic of Guinea-Bissau,NA,7. Least developed region,5. Low income,,Africa,Africa,Western Africa,Sub-Saharan Africa,-14.6088959241334,11.802490234375
Equatorial Guinea,,GNQ,,Equatorial Guinea,NA,Sovereign country,Equatorial Guinea,GNQ,Republic of Equatorial Guinea,NA,7. Least developed region,2. High income: nonOECD,,Africa,Africa,Middle Africa,Sub-Saharan Africa,10.5023279894654,1.6788818359375
Greece,,GRC,,Greece,NA,Sovereign country,Greece,GRC,Hellenic Republic,NA,2. Developed region: nonG7,1. High income: OECD,,Europe,Europe,Southern Europe,Europe & Central Asia,21.806924138213,39.08447265625
Grenada,,GRD,,Grenada,NA,Sovereign country,Grenada,GRD,Grenada,NA,6. Developing region,3. Upper middle income,,North America,Americas,Caribbean,Latin America & Caribbean,-61.6742822490899,12.1468017578125
Greenland,,GRL,,Greenland,NA,Country,Denmark,DN1,Greenland,NA,2. Developed region: nonG7,2. High income: nonOECD,,North America,Americas,Northern America,Europe & Central Asia,-37.6363229797237,71.700830078125
Guatemala,,GTM,,Guatemala,NA,Sovereign country,Guatemala,GTM,Republic of Guatemala,NA,6. Developing region,4. Lower middle income,,North America,Americas,Central America,Latin America & Caribbean,-90.2819232881336,15.7853515625
Guam,,GUM,,Guam,NA,Dependency,United States of America,US1,Territory of Guam,NA,6. Developing region,2. High income: nonOECD,,Oceania,Oceania,Micronesia,East Asia & Pacific,144.783546719229,13.477783203125
Guyana,,GUY,,Guyana,NA,Sovereign country,Guyana,GUY,Co-operative Republic of Guyana,NA,6. Developing region,4. Lower middle income,,South America,Americas,South America,Latin America & Caribbean,-58.9606658589828,4.8505126953125
Hong Kong S.A.R.,,HKG,,"Hong Kong SAR, China",NA,Country,China,CH1,"Hong Kong Special Administrative Region, PRC",NA,6. Developing region,2. High income: nonOECD,,Asia,Asia,Eastern Asia,East Asia & Pacific,114.11595738232,22.4327880859375
Heard Island and McDonald Islands,,HMD,,Heard Island and McDonald Islands,NA,Dependency,Australia,AU1,Territory of Heard Island and McDonald Islands,NA,7. Least developed region,5. Low income,,Seven seas (open ocean),Seven seas (open ocean),Seven seas (open ocean),Sub-Saharan Africa,73.5090580512252,-53.060546875
Honduras,,HND,,Honduras,NA,Sovereign country,Honduras,HND,Republic of Honduras,NA,6. Developing region,4. Lower middle income,,North America,Americas,Central America,Latin America & Caribbean,-87.2443025056451,14.4929443359375
Croatia,,HRV,,Croatia,NA,Sovereign country,Croatia,HRV,Republic of Croatia,NA,2. Developed region: nonG7,2. High income: nonOECD,,Europe,Europe,Southern Europe,Europe & Central Asia,15.339919262011,44.7362060546875
Haiti,,HTI,,Haiti,NA,Sovereign country,Haiti,HTI,Republic of Haiti,NA,7. Least developed region,5. Low income,,North America,Americas,Caribbean,Latin America & Caribbean,-72.250034820607,18.953515625
Hungary,,HUN,,Hungary,NA,Sovereign country,Hungary,HUN,Republic of Hungary,NA,2. Developed region: nonG7,1. High income: OECD,,Europe,Europe,Eastern Europe,Europe & Central Asia,19.1182684077305,47.18466796875
Indonesia,,IDN,,Indonesia,NA,Sovereign country,Indonesia,IDN,Republic of Indonesia,NA,4. Emerging region: MIKT,4. Lower middle income,,Asia,Asia,South-Eastern Asia,East Asia & Pacific,113.351944645505,0.095654296874997
Isle of Man,,IMN,,Isle of Man,NA,Country,United Kingdom,GB1,NA,NA,2. Developed region: nonG7,2. High income: nonOECD,,Europe,Europe,Northern Europe,Europe & Central Asia,-4.5113856764408,54.2461669921875
India,,IND,,India,NA,Sovereign country,India,IND,Republic of India,NA,3. Emerging region: BRIC,4. Lower middle income,,Asia,Asia,Southern Asia,South Asia,80.2312940511353,21.783935546875
Indian Ocean Territories,,IOA,,Indian Ocean Territories,NA,Dependency,Australia,AU1,NA,NA,2. Developed region: nonG7,2. High income: nonOECD,,Asia,Seven seas (open ocean),Seven seas (open ocean),East Asia & Pacific,105.653854562181,-10.502734375
British Indian Ocean Territory,,IOT,,British Indian Ocean Territory,NA,Dependency,United Kingdom,GB1,NA, Claimed by Mauritius and Seychelles,2. Developed region: nonG7,2. High income: nonOECD,,Seven seas (open ocean),Seven seas (open ocean),Seven seas (open ocean),Sub-Saharan Africa,72.4147794534701,-7.3220703125
Ireland,,IRL,,Ireland,NA,Sovereign country,Ireland,IRL,Ireland,NA,2. Developed region: nonG7,1. High income: OECD,,Europe,Europe,Northern Europe,Europe & Central Asia,-8.11353450726853,53.4292236328125
Iran,,IRN,,"Iran, Islamic Rep.",NA,Sovereign country,Iran,IRN,Islamic Republic of Iran,NA,5. Emerging region: G20,3. Upper middle income,,Asia,Asia,Southern Asia,Middle East & North Africa,54.057676668725,32.4396240234375
Iraq,,IRQ,,Iraq,NA,Sovereign country,Iraq,IRQ,Republic of Iraq,NA,6. Developing region,4. Lower middle income,,Asia,Asia,Western Asia,Middle East & North Africa,42.4860032773981,33.2020263671875
Iceland,,ISL,,Iceland,NA,Sovereign country,Iceland,ISL,Republic of Iceland,NA,2. Developed region: nonG7,1. High income: OECD,,Europe,Europe,Northern Europe,Europe & Central Asia,-18.442080246962,64.97783203125
Israel,,ISR,,Israel,NA,Sovereign country,Israel,ISR,State of Israel,NA,2. Developed region: nonG7,1. High income: OECD,,Asia,Asia,Western Asia,Middle East & North Africa,34.6699604558498,31.4510498046875
Italy,,ITA,,Italy,NA,Sovereign country,Italy,ITA,Italian Republic,NA,1. Developed region: G7,1. High income: OECD,,Europe,Europe,Southern Europe,Europe & Central Asia,12.6700437529619,42.5208007812501
Jamaica,,JAM,,Jamaica,NA,Sovereign country,Jamaica,JAM,Jamaica,NA,6. Developing region,3. Upper middle income,,North America,Americas,Caribbean,Latin America & Caribbean,-77.1564320551871,18.09970703125
Jersey,,JEY,,Jersey,NA,Country,United Kingdom,GB1,Bailiwick of Jersey,NA,2. Developed region: nonG7,2. High income: nonOECD,,Europe,Europe,Northern Europe,Europe & Central Asia,-2.12253891118253,49.209326171875
Jordan,,JOR,,Jordan,NA,Sovereign country,Jordan,JOR,Hashemite Kingdom of Jordan,NA,6. Developing region,3. Upper middle income,,Asia,Asia,Western Asia,Middle East & North Africa,36.3003875811094,31.277685546875
Japan,,JPN,,Japan,NA,Sovereign country,Japan,JPN,Japan,NA,1. Developed region: G7,1. High income: OECD,,Asia,Asia,Eastern Asia,East Asia & Pacific,143.330634143648,43.4876953125
Siachen Glacier,,KAS,,Kashmir,NA,Indeterminate,Kashmir,KAS,NA,Claimed by Pakistan and India,6. Developing region,4. Lower middle income,,Asia,Asia,Southern Asia,South Asia,77.2618725111444,35.4072509765625
Kazakhstan,,KAZ,,Kazakhstan,NA,Sovereign country,Kazakhstan,KAZ,Republic of Kazakhstan,NA,6. Developing region,3. Upper middle income,,Asia,Asia,Central Asia,Europe & Central Asia,66.3232893880209,47.9839111328125
Kenya,,KEN,,Kenya,NA,Sovereign country,Kenya,KEN,Republic of Kenya,NA,5. Emerging region: G20,5. Low income,,Africa,Africa,Eastern Africa,Sub-Saharan Africa,37.5348728366699,0.443798828125004
Kyrgyzstan,,KGZ,,Kyrgyz Republic,NA,Sovereign country,Kyrgyzstan,KGZ,Kyrgyz Republic,NA,6. Developing region,5. Low income,,Asia,Asia,Central Asia,Europe & Central Asia,75.0726476995916,41.21044921875
Cambodia,,KHM,,Cambodia,NA,Sovereign country,Cambodia,KHM,Kingdom of Cambodia,NA,7. Least developed region,5. Low income,,Asia,Asia,South-Eastern Asia,East Asia & Pacific,105.099251169739,12.5549560546875
Kiribati,,KIR,,Kiribati,NA,Sovereign country,Kiribati,KIR,Republic of Kiribati,NA,7. Least developed region,4. Lower middle income,,Oceania,Oceania,Micronesia,East Asia & Pacific,173.104272641099,1.36105957031251
Saint Kitts and Nevis,,KNA,,St. Kitts and Nevis,NA,Sovereign country,Saint Kitts and Nevis,KNA,Federation of Saint Kitts and Nevis,NA,6. Developing region,2. High income: nonOECD,,North America,Americas,Caribbean,Latin America & Caribbean,-62.7506693888569,17.321044921875
South Korea,,KOR,,"Korea, Rep.",NA,Sovereign country,South Korea,KOR,Republic of Korea,NA,4. Emerging region: MIKT,1. High income: OECD,,Asia,Asia,Eastern Asia,East Asia & Pacific,127.995542070747,36.4501953125
Kosovo,,KOS,,Kosovo,NA,Sovereign country,Kosovo,KOS,Republic of Kosovo, Claimed by Serbia,6. Developing region,4. Lower middle income,,Europe,Europe,Southern Europe,Europe & Central Asia,20.8967106774761,42.57626953125
Kuwait,,KWT,,Kuwait,NA,Sovereign country,Kuwait,KWT,State of Kuwait,NA,6. Developing region,2. High income: nonOECD,,Asia,Asia,Western Asia,Middle East & North Africa,47.4044879352524,29.311474609375
Laos,,LAO,,Lao PDR,NA,Sovereign country,Laos,LAO,Lao People's Democratic Republic,NA,7. Least developed region,4. Lower middle income,,Asia,Asia,South-Eastern Asia,East Asia & Pacific,104.682560977193,18.2072509765625
Lebanon,,LBN,,Lebanon,NA,Sovereign country,Lebanon,LBN,Lebanese Republic,NA,6. Developing region,3. Upper middle income,,Asia,Asia,Western Asia,Middle East & North Africa,35.9212641938024,33.867431640625
Liberia,,LBR,,Liberia,NA,Sovereign country,Liberia,LBR,Republic of Liberia,NA,7. Least developed region,5. Low income,,Africa,Africa,Western Africa,Sub-Saharan Africa,-9.6290494021651,6.43479003906249
Libya,,LBY,,Libya,NA,Sovereign country,Libya,LBY,Libya,NA,6. Developing region,3. Upper middle income,,Africa,Africa,Northern Africa,Middle East & North Africa,17.284228515625,26.385986328125
Saint Lucia,,LCA,,St. Lucia,NA,Sovereign country,Saint Lucia,LCA,Saint Lucia,NA,6. Developing region,3. Upper middle income,,North America,Americas,Caribbean,Latin America & Caribbean,-60.980255306561,13.890576171875
Liechtenstein,,LIE,,Liechtenstein,NA,Sovereign country,Liechtenstein,LIE,Principality of Liechtenstein,NA,2. Developed region: nonG7,2. High income: nonOECD,,Europe,Europe,Western Europe,Europe & Central Asia,9.52568823181402,47.165283203125
Sri Lanka,,LKA,,Sri Lanka,NA,Sovereign country,Sri Lanka,LKA,Democratic Socialist Republic of Sri Lanka,NA,6. Developing region,4. Lower middle income,,Asia,Asia,Southern Asia,South Asia,80.6593107063924,7.90747070312504
Lesotho,,LSO,,Lesotho,NA,Sovereign country,Lesotho,LSO,Kingdom of Lesotho,NA,7. Least developed region,4. Lower middle income,,Africa,Africa,Southern Africa,Sub-Saharan Africa,28.1692682343165,-29.60908203125
Lithuania,,LTU,,Lithuania,NA,Sovereign country,Lithuania,LTU,Republic of Lithuania,NA,2. Developed region: nonG7,3. Upper middle income,,Europe,Europe,Northern Europe,Europe & Central Asia,24.1649036224575,55.1499755859375
Luxembourg,,LUX,,Luxembourg,NA,Sovereign country,Luxembourg,LUX,Grand Duchy of Luxembourg,NA,2. Developed region: nonG7,1. High income: OECD,,Europe,Europe,Western Europe,Europe & Central Asia,6.08124893602339,49.8068115234375
Latvia,,LVA,,Latvia,NA,Sovereign country,Latvia,LVA,Republic of Latvia,NA,2. Developed region: nonG7,3. Upper middle income,,Europe,Europe,Northern Europe,Europe & Central Asia,24.3904974167717,56.86025390625
Macao S.A.R,,MAC,,"Macao SAR, China",NA,Country,China,CH1,"Macao Special Administrative Region, PRC",NA,6. Developing region,2. High income: nonOECD,,Asia,Asia,Eastern Asia,East Asia & Pacific,113.511468412122,22.219482421875
Saint Martin,,MAF,,St. Martin (French part),NA,Dependency,France,FR1,Saint-Martin (French part),NA,6. Developing region,2. High income: nonOECD,,North America,Americas,Caribbean,Latin America & Caribbean,-63.0552183337748,18.097509765625
Morocco,,MAR,,Morocco,NA,Sovereign country,Morocco,MAR,Kingdom of Morocco,NA,6. Developing region,4. Lower middle income,,Africa,Africa,Northern Africa,Middle East & North Africa,-9.91502219367841,28.655078125
Monaco,,MCO,,Monaco,NA,Sovereign country,Monaco,MCO,Principality of Monaco,NA,2. Developed region: nonG7,2. High income: nonOECD,,Europe,Europe,Western Europe,Europe & Central Asia,7.40918825893756,43.7518310546875
Moldova,,MDA,,Moldova,NA,Sovereign country,Moldova,MDA,Republic of Moldova,NA,6. Developing region,4. Lower middle income,,Europe,Europe,Eastern Europe,Europe & Central Asia,28.8230212895644,46.9712158203125
Madagascar,,MDG,,Madagascar,NA,Sovereign country,Madagascar,MDG,Republic of Madagascar,NA,7. Least developed region,5. Low income,,Africa,Africa,Eastern Africa,Sub-Saharan Africa,46.7149326661438,-18.827734375
Maldives,,MDV,,Maldives,NA,Sovereign country,Maldives,MDV,Republic of Maldives,NA,6. Developing region,3. Upper middle income,,Seven seas (open ocean),Asia,Southern Asia,South Asia,73.4110526073001,3.2607666015625
Mexico,,MEX,,Mexico,NA,Sovereign country,Mexico,MEX,United Mexican States,NA,4. Emerging region: MIKT,3. Upper middle income,,North America,Americas,Central America,Latin America & Caribbean,-102.242134459944,23.6361328125
Marshall Islands,,MHL,,Marshall Islands,NA,Sovereign country,Marshall Islands,MHL,Republic of the Marshall Islands,NA,6. Developing region,4. Lower middle income,,Oceania,Oceania,Micronesia,East Asia & Pacific,171.653610143953,7.01315917968751
Macedonia,,MKD,,"Macedonia, FYR",NA,Sovereign country,Macedonia,MKD,Former Yugoslav Republic of Macedonia,NA,6. Developing region,3. Upper middle income,,Europe,Europe,Southern Europe,Europe & Central Asia,21.7332221674879,41.590185546875
Mali,,MLI,,Mali,NA,Sovereign country,Mali,MLI,Republic of Mali,NA,7. Least developed region,5. Low income,,Africa,Africa,Western Africa,Sub-Saharan Africa,-0.755231625658742,17.5688720703125
Malta,,MLT,,Malta,NA,Sovereign country,Malta,MLT,Republic of Malta,NA,2. Developed region: nonG7,2. High income: nonOECD,,Europe,Europe,Southern Europe,Middle East & North Africa,14.4222588757583,35.9218505859375
Myanmar,,MMR,,Myanmar,NA,Sovereign country,Myanmar,MMR,Republic of the Union of Myanmar,NA,7. Least developed region,5. Low income,,Asia,Asia,South-Eastern Asia,East Asia & Pacific,95.9199009412746,19.2796630859375
Montenegro,,MNE,,Montenegro,NA,Sovereign country,Montenegro,MNE,Montenegro,NA,6. Developing region,3. Upper middle income,,Europe,Europe,Southern Europe,Europe & Central Asia,19.282407753934,42.708935546875
Mongolia,,MNG,,Mongolia,NA,Sovereign country,Mongolia,MNG,Mongolia,NA,6. Developing region,4. Lower middle income,,Asia,Asia,Eastern Asia,East Asia & Pacific,105.417200306504,46.8246337890625
Northern Mariana Islands,,MNP,,Northern Mariana Islands,NA,Dependency,United States of America,US1,Commonwealth of the Northern Mariana Islands,NA,6. Developing region,2. High income: nonOECD,,Oceania,Oceania,Micronesia,East Asia & Pacific,145.204479263504,14.147509765625
Mozambique,,MOZ,,Mozambique,NA,Sovereign country,Mozambique,MOZ,Republic of Mozambique,NA,7. Least developed region,5. Low income,,Africa,Africa,Eastern Africa,Sub-Saharan Africa,34.6683053588867,-18.660986328125
Mauritania,,MRT,,Mauritania,NA,Sovereign country,Mauritania,MRT,Islamic Republic of Mauritania,NA,7. Least developed region,5. Low income,,Africa,Africa,Western Africa,Sub-Saharan Africa,-11.4905742292957,21.0224365234375
Montserrat,,MSR,,Montserrat,NA,Dependency,United Kingdom,GB1,NA,NA,6. Developing region,4. Lower middle income,,North America,Americas,Caribbean,Latin America & Caribbean,-62.1867745986611,16.745947265625
Mauritius,,MUS,,Mauritius,NA,Sovereign country,Mauritius,MUS,Republic of Mauritius,NA,6. Developing region,3. Upper middle income,,Seven seas (open ocean),Africa,Eastern Africa,Sub-Saharan Africa,57.5803073793232,-20.277783203125
Malawi,,MWI,,Malawi,NA,Sovereign country,Malawi,MWI,Republic of Malawi,NA,7. Least developed region,5. Low income,,Africa,Africa,Eastern Africa,Sub-Saharan Africa,33.7381003903599,-13.3072265625
Malaysia,,MYS,,Malaysia,NA,Sovereign country,Malaysia,MYS,Malaysia,NA,6. Developing region,3. Upper middle income,,Asia,Asia,South-Eastern Asia,East Asia & Pacific,102.100459103468,4.01259765625
Namibia,,NAM,,Namibia,NA,Sovereign country,Namibia,NAM,Republic of Namibia,NA,6. Developing region,3. Upper middle income,,Africa,Africa,Southern Africa,Sub-Saharan Africa,17.1955261228983,-22.9447265625
New Caledonia,,NCL,,New Caledonia,NA,Dependency,France,FR1,New Caledonia,NA,6. Developing region,2. High income: nonOECD,,Oceania,Oceania,Melanesia,East Asia & Pacific,165.257324743763,-21.234375
Niger,,NER,,Niger,NA,Sovereign country,Niger,NER,Republic of Niger,NA,7. Least developed region,5. Low income,,Africa,Africa,Western Africa,Sub-Saharan Africa,9.88713651025314,17.70634765625
Norfolk Island,,NFK,,Norfolk Island,NA,Dependency,Australia,AU1,Territory of Norfolk Island,NA,6. Developing region,4. Lower middle income,,Oceania,Oceania,Australia and New Zealand,East Asia & Pacific,167.951011374049,-29.055908203125
Nigeria,,NGA,,Nigeria,NA,Sovereign country,Nigeria,NGA,Federal Republic of Nigeria,NA,5. Emerging region: G20,4. Lower middle income,,Africa,Africa,Western Africa,Sub-Saharan Africa,7.90349137637647,9.072607421875
Nicaragua,,NIC,,Nicaragua,NA,Sovereign country,Nicaragua,NIC,Republic of Nicaragua,NA,6. Developing region,4. Lower middle income,,North America,Americas,Central America,Latin America & Caribbean,-85.5435111262289,12.83056640625
Niue,,NIU,,Niue,NA,Dependency,New Zealand,NZ1,NA,NA,6. Developing region,3. Upper middle income,,Oceania,Oceania,Polynesia,East Asia & Pacific,-169.86912020843,-19.05771484375
Netherlands,,NLD,,Netherlands,NA,Country,Netherlands,NL1,Kingdom of the Netherlands,NA,2. Developed region: nonG7,1. High income: OECD,,Europe,Europe,Western Europe,Europe & Central Asia,5.4912883827461,52.089453125
Norway,,NOR,,Norway,NA,Sovereign country,Norway,NOR,Kingdom of Norway,NA,2. Developed region: nonG7,1. High income: OECD,,Europe,Europe,Northern Europe,Europe & Central Asia,22.6749666487035,79.8421142578125
Nepal,,NPL,,Nepal,NA,Sovereign country,Nepal,NPL,Nepal,NA,7. Least developed region,5. Low income,,Asia,Asia,Southern Asia,South Asia,83.0743834522019,28.39091796875
Nauru,,NRU,,Nauru,NA,Sovereign country,Nauru,NRU,Republic of Nauru,NA,6. Developing region,4. Lower middle income,,Oceania,Oceania,Micronesia,East Asia & Pacific,166.932175366598,-0.520166015625001
New Zealand,,NZL,,New Zealand,NA,Country,New Zealand,NZ1,New Zealand,NA,2. Developed region: nonG7,1. High income: OECD,,Oceania,Oceania,Australia and New Zealand,East Asia & Pacific,176.610152080202,-38.008056640625
Oman,,OMN,,Oman,NA,Sovereign country,Oman,OMN,Sultanate of Oman,NA,6. Developing region,2. High income: nonOECD,,Asia,Asia,Western Asia,Middle East & North Africa,56.9924187164083,20.855615234375
Pakistan,,PAK,,Pakistan,NA,Sovereign country,Pakistan,PAK,Islamic Republic of Pakistan,NA,5. Emerging region: G20,4. Lower middle income,,Asia,Asia,Southern Asia,South Asia,70.0993082507469,30.414697265625
Panama,,PAN,,Panama,NA,Sovereign country,Panama,PAN,Republic of Panama,NA,6. Developing region,3. Upper middle income,,North America,Americas,Central America,Latin America & Caribbean,-81.4803714381744,8.41113281250001
Pitcairn Islands,,PCN,,Pitcairn Islands,NA,Dependency,United Kingdom,GB1,"Pitcairn, Henderson, Ducie and Oeno Islands",NA,7. Least developed region,5. Low income,,Oceania,Oceania,Polynesia,East Asia & Pacific,-128.316867842092,-24.36767578125
Peru,,PER,,Peru,NA,Sovereign country,Peru,PER,Republic of Peru,NA,5. Emerging region: G20,3. Upper middle income,,South America,Americas,South America,Latin America & Caribbean,-75.7954684671538,-9.21118164062501
Philippines,,PHL,,Philippines,NA,Sovereign country,Philippines,PHL,Republic of the Philippines,NA,5. Emerging region: G20,4. Lower middle income,,Asia,Asia,South-Eastern Asia,East Asia & Pacific,125.234553147343,7.68884277343749
Palau,,PLW,,Palau,NA,Sovereign country,Palau,PLW,Republic of Palau,NA,6. Developing region,3. Upper middle income,,Oceania,Oceania,Micronesia,East Asia & Pacific,134.589131083128,7.55986328125001
Papua New Guinea,,PNG,,Papua New Guinea,NA,Sovereign country,Papua New Guinea,PNG,Independent State of Papua New Guinea,NA,6. Developing region,4. Lower middle income,,Oceania,Oceania,Melanesia,East Asia & Pacific,144.359868153072,-6.636962890625
Poland,,POL,,Poland,NA,Sovereign country,Poland,POL,Republic of Poland,NA,2. Developed region: nonG7,1. High income: OECD,,Europe,Europe,Eastern Europe,Europe & Central Asia,19.1577694268924,51.9314208984375
Puerto Rico,,PRI,,Puerto Rico,NA,Dependency,United States of America,US1,Commonwealth of Puerto Rico,NA,6. Developing region,2. High income: nonOECD,,North America,Americas,Caribbean,Latin America & Caribbean,-66.4070176862432,18.2332763671875
North Korea,,PRK,,"Korea, Dem. Rep.",NA,Sovereign country,North Korea,PRK,Democratic People's Republic of Korea,NA,7. Least developed region,5. Low income,,Asia,Asia,Eastern Asia,East Asia & Pacific,126.810942197592,40.3711181640625
Portugal,,PRT,,Portugal,NA,Sovereign country,Portugal,PRT,Portuguese Republic,NA,2. Developed region: nonG7,1. High income: OECD,,Europe,Europe,Southern Europe,Europe & Central Asia,-8.30439407579036,39.59365234375
Paraguay,,PRY,,Paraguay,NA,Sovereign country,Paraguay,PRY,Republic of Paraguay,NA,5. Emerging region: G20,4. Lower middle income,,South America,Americas,South America,Latin America & Caribbean,-58.4811736750241,-23.436572265625
Palestine,,PSX,,Palestine (West Bank and Gaza),NA,Disputed,Israel,ISR,West Bank and Gaza,Partial self-admin.,6. Developing region,4. Lower middle income,,Asia,Asia,Western Asia,Middle East & North Africa,35.2603428054913,31.9490966796875
French Polynesia,,PYF,,French Polynesia,NA,Dependency,France,FR1,French Polynesia,NA,6. Developing region,2. High income: nonOECD,,Oceania,Oceania,Polynesia,East Asia & Pacific,-139.012350332431,-9.78154296875004
Qatar,,QAT,,Qatar,NA,Sovereign country,Qatar,QAT,State of Qatar,NA,6. Developing region,2. High income: nonOECD,,Asia,Asia,Western Asia,Middle East & North Africa,51.1507221306732,25.337109375
Romania,,ROU,,Romania,NA,Sovereign country,Romania,ROU,Romania,NA,2. Developed region: nonG7,3. Upper middle income,,Europe,Europe,Eastern Europe,Europe & Central Asia,24.2518785679093,45.956689453125
Russia,,RUS,,Russian Federation,NA,Sovereign country,Russia,RUS,Russian Federation,NA,3. Emerging region: BRIC,3. Upper middle income,,Europe,Europe,Eastern Europe,Europe & Central Asia,88.385900378918,59.46494140625
Rwanda,,RWA,,Rwanda,NA,Sovereign country,Rwanda,RWA,Republic of Rwanda,NA,7. Least developed region,5. Low income,,Africa,Africa,Eastern Africa,Sub-Saharan Africa,29.973842706108,-1.91386718750001
Western Sahara,,SAH,,Western Sahara,NA,Indeterminate,Western Sahara,SAH,Sahrawi Arab Democratic Republic, Claimed by Morocco,7. Least developed region,5. Low income,,Africa,Africa,Northern Africa,Middle East & North Africa,-12.5859497070312,24.231396484375
Saudi Arabia,,SAU,,Saudi Arabia,NA,Sovereign country,Saudi Arabia,SAU,Kingdom of Saudi Arabia,NA,2. Developed region: nonG7,2. High income: nonOECD,,Asia,Asia,Western Asia,Middle East & North Africa,44.6733995625442,24.222705078125
Sudan,,SDN,,Sudan,NA,Sovereign country,Sudan,SDN,Republic of the Sudan,NA,6. Developing region,4. Lower middle income,,Africa,Africa,Northern Africa,Sub-Saharan Africa,29.7701050283813,15.447607421875
South Sudan,,SDS,,South Sudan,NA,Sovereign country,South Sudan,SDS,Republic of South Sudan,NA,7. Least developed region,5. Low income,,Africa,Africa,Eastern Africa,Sub-Saharan Africa,29.1005183772412,7.846142578125
Senegal,,SEN,,Senegal,NA,Sovereign country,Senegal,SEN,Republic of Senegal,NA,7. Least developed region,4. Lower middle income,,Africa,Africa,Western Africa,Sub-Saharan Africa,-14.6597306388238,14.527099609375
Singapore,,SGP,,Singapore,NA,Sovereign country,Singapore,SGP,Republic of Singapore,NA,6. Developing region,2. High income: nonOECD,,Asia,Asia,South-Eastern Asia,East Asia & Pacific,103.823040311818,1.34833984375
South Georgia and South Sandwich Islands,,SGS,,South Georgia and the Islands,NA,Dependency,United Kingdom,GB1,South Georgia and South Sandwich Islands,NA,7. Least developed region,5. Low income,,Seven seas (open ocean),Seven seas (open ocean),Seven seas (open ocean),Antarctica,-36.4610057116091,-54.431298828125
Saint Helena,,SHN,,St. Helena,NA,Dependency,United Kingdom,GB1,NA,NA,6. Developing region,4. Lower middle income,,Seven seas (open ocean),Africa,Western Africa,Sub-Saharan Africa,-14.3610727815211,-7.92402343749998
Solomon Islands,,SLB,,Solomon Islands,NA,Sovereign country,Solomon Islands,SLB,NA,NA,7. Least developed region,4. Lower middle income,,Oceania,Oceania,Melanesia,East Asia & Pacific,160.152843989236,-9.61284179687495
Sierra Leone,,SLE,,Sierra Leone,NA,Sovereign country,Sierra Leone,SLE,Republic of Sierra Leone,NA,7. Least developed region,5. Low income,,Africa,Africa,Western Africa,Sub-Saharan Africa,-11.8617266944831,8.44819335937498
El Salvador,,SLV,,El Salvador,NA,Sovereign country,El Salvador,SLV,Republic of El Salvador,NA,6. Developing region,4. Lower middle income,,North America,Americas,Central America,Latin America & Caribbean,-88.9124227796177,13.7978515625
San Marino,,SMR,,San Marino,NA,Sovereign country,San Marino,SMR,Republic of San Marino,NA,2. Developed region: nonG7,2. High income: nonOECD,,Europe,Europe,Southern Europe,Europe & Central Asia,12.4573927501521,43.9437744140625
Somaliland,,SOL,,Somaliland,NA,Indeterminate,Somaliland,SOL,Republic of Somaliland, Claimed by Somalia,6. Developing region,4. Lower middle income,,Africa,Africa,Eastern Africa,Sub-Saharan Africa,46.0994888125141,9.6896240234375
Somalia,,SOM,,Somalia,NA,Sovereign country,Somalia,SOM,Federal Republic of Somalia,NA,7. Least developed region,5. Low income,,Africa,Africa,Eastern Africa,Sub-Saharan Africa,46.8884806777242,5.28854980468749
Saint Pierre and Miquelon,,SPM,,St. Pierre and Miquelon,NA,Dependency,France,FR1,Saint Pierre and Miquelon,NA,2. Developed region: nonG7,3. Upper middle income,,North America,Americas,Northern America,North America,-56.1791839084374,46.7884521484375
Republic of Serbia,,SRB,,Serbia,NA,Sovereign country,Republic of Serbia,SRB,Republic of Serbia,NA,6. Developing region,3. Upper middle income,,Europe,Europe,Southern Europe,Europe & Central Asia,21.0048969495958,44.2071533203125
Sao Tome and Principe,,STP,,São Tomé and Principe,NA,Sovereign country,Sao Tome and Principe,STP,Democratic Republic of São Tomé and Principe,NA,7. Least developed region,4. Lower middle income,,Africa,Africa,Middle Africa,Sub-Saharan Africa,6.5906065728956,0.173999023437474
Suriname,,SUR,,Suriname,NA,Sovereign country,Suriname,SUR,Republic of Suriname,NA,6. Developing region,3. Upper middle income,,South America,Americas,South America,Latin America & Caribbean,-56.1379470784854,3.951513671875
Slovakia,,SVK,,Slovak Republic,NA,Sovereign country,Slovakia,SVK,Slovak Republic,NA,2. Developed region: nonG7,1. High income: OECD,,Europe,Europe,Eastern Europe,Europe & Central Asia,19.6390122510326,48.6813720703125
Slovenia,,SVN,,Slovenia,NA,Sovereign country,Slovenia,SVN,Republic of Slovenia,NA,2. Developed region: nonG7,1. High income: OECD,,Europe,Europe,Southern Europe,Europe & Central Asia,14.6127440350651,46.148876953125
Sweden,,SWE,,Sweden,NA,Sovereign country,Sweden,SWE,Kingdom of Sweden,NA,2. Developed region: nonG7,1. High income: OECD,,Europe,Europe,Northern Europe,Europe & Central Asia,14.9168493637679,62.1898681640625
Swaziland,,SWZ,,Swaziland,NA,Sovereign country,Swaziland,SWZ,Kingdom of Swaziland,NA,6. Developing region,4. Lower middle income,,Africa,Africa,Southern Africa,Sub-Saharan Africa,31.4474679580899,-26.566845703125
Sint Maarten,,SXM,,St. Maarten (Dutch part),NA,Country,Netherlands,NL1,Sint Maarten (Dutch part),NA,6. Developing region,2. High income: nonOECD,,North America,Americas,Caribbean,Latin America & Caribbean,-63.0532755344341,18.043408203125
Seychelles,,SYC,,Seychelles,NA,Sovereign country,Seychelles,SYC,Republic of Seychelles,NA,6. Developing region,3. Upper middle income,,Seven seas (open ocean),Africa,Eastern Africa,Sub-Saharan Africa,55.4873068116403,-4.67167968750001
Syria,,SYR,,Syrian Arab Republic,NA,Sovereign country,Syria,SYR,Syrian Arab Republic,NA,6. Developing region,4. Lower middle income,,Asia,Asia,Western Asia,Middle East & North Africa,38.553325448404,34.8287109375
Turks and Caicos Islands,,TCA,,Turks and Caicos Islands,NA,Dependency,United Kingdom,GB1,Turks and Caicos Islands,NA,6. Developing region,2. High income: nonOECD,,North America,Americas,Caribbean,Latin America & Caribbean,-71.7455478628636,21.8120361328125
Chad,,TCD,,Chad,NA,Sovereign country,Chad,TCD,Republic of Chad,NA,7. Least developed region,5. Low income,,Africa,Africa,Middle Africa,Sub-Saharan Africa,18.5358846757539,15.398046875
Togo,,TGO,,Togo,NA,Sovereign country,Togo,TGO,Togolese Republic,NA,7. Least developed region,5. Low income,,Africa,Africa,Western Africa,Sub-Saharan Africa,1.0276124285596,8.61401367187499
Thailand,,THA,,Thailand,NA,Sovereign country,Thailand,THA,Kingdom of Thailand,NA,5. Emerging region: G20,3. Upper middle income,,Asia,Asia,South-Eastern Asia,East Asia & Pacific,101.680164629515,13.022900390625
Tajikistan,,TJK,,Tajikistan,NA,Sovereign country,Tajikistan,TJK,Republic of Tajikistan,NA,6. Developing region,5. Low income,,Asia,Asia,Central Asia,Europe & Central Asia,70.92036895449,38.870263671875
Turkmenistan,,TKM,,Turkmenistan,NA,Sovereign country,Turkmenistan,TKM,Turkmenistan,NA,6. Developing region,3. Upper middle income,,Asia,Asia,Central Asia,Europe & Central Asia,58.9975148136522,38.9654541015625
East Timor,,TLS,,Timor-Leste,East Timor,Sovereign country,East Timor,TLS,Democratic Republic of Timor-Leste,NA,7. Least developed region,4. Lower middle income,,Asia,Asia,South-Eastern Asia,East Asia & Pacific,125.696632413687,-8.92758789062496
Tonga,,TON,,Tonga,NA,Sovereign country,Tonga,TON,Kingdom of Tonga,NA,6. Developing region,4. Lower middle income,,Oceania,Oceania,Polynesia,East Asia & Pacific,-175.247211484964,-21.1650390625
Trinidad and Tobago,,TTO,,Trinidad and Tobago,NA,Sovereign country,Trinidad and Tobago,TTO,Republic of Trinidad and Tobago,NA,6. Developing region,2. High income: nonOECD,,North America,Americas,Caribbean,Latin America & Caribbean,-61.2525383218784,10.434326171875
Tunisia,,TUN,,Tunisia,NA,Sovereign country,Tunisia,TUN,Republic of Tunisia,NA,6. Developing region,3. Upper middle income,,Africa,Africa,Northern Africa,Middle East & North Africa,8.87921393190423,33.78037109375
Turkey,,TUR,,Turkey,NA,Sovereign country,Turkey,TUR,Republic of Turkey,NA,4. Emerging region: MIKT,3. Upper middle income,,Asia,Asia,Western Asia,Europe & Central Asia,35.4989260199868,38.9476806640625
Taiwan,,TWN,,Taiwan,NA,Sovereign country,Taiwan,TWN,NA, Claimed by China,2. Developed region: nonG7,2. High income: nonOECD,,Asia,Asia,Eastern Asia,East Asia & Pacific,120.819553745501,23.5897705078125
United Republic of Tanzania,,TZA,,Tanzania,NA,Sovereign country,United Republic of Tanzania,TZA,United Republic of Tanzania,NA,7. Least developed region,5. Low income,,Africa,Africa,Eastern Africa,Sub-Saharan Africa,34.236262548002,-6.36284179687502
Uganda,,UGA,,Uganda,NA,Sovereign country,Uganda,UGA,Republic of Uganda,NA,7. Least developed region,5. Low income,,Africa,Africa,Eastern Africa,Sub-Saharan Africa,32.6819342169963,1.32700195312499
Ukraine,,UKR,,Ukraine,NA,Sovereign country,Ukraine,UKR,Ukraine,NA,6. Developing region,4. Lower middle income,,Europe,Europe,Eastern Europe,Europe & Central Asia,33.8864627788612,48.3698486328125
Uruguay,,URY,,Uruguay,NA,Sovereign country,Uruguay,URY,Oriental Republic of Uruguay,NA,5. Emerging region: G20,3. Upper middle income,,South America,Americas,South America,Latin America & Caribbean,-55.8065935287321,-32.53486328125
United States of America,,USA,,United States of America,NA,Country,United States of America,US1,United States of America,NA,1. Developed region: G7,1. High income: OECD,,North America,Americas,Northern America,North America,-99.6873057048837,37.2553466796875
Uzbekistan,,UZB,,Uzbekistan,NA,Sovereign country,Uzbekistan,UZB,Republic of Uzbekistan,NA,6. Developing region,4. Lower middle income,,Asia,Asia,Central Asia,Europe & Central Asia,63.4039313281389,41.3639892578125
Vatican,,VAT,,Vatican (Holy Sea),Holy Sea,Sovereign country,Vatican,VAT,State of the Vatican City,NA,2. Developed region: nonG7,2. High income: nonOECD,,Europe,Europe,Southern Europe,Europe & Central Asia,12.4338708496094,41.9031005859375
Saint Vincent and the Grenadines,,VCT,,St. Vincent and the Grenadines,NA,Sovereign country,Saint Vincent and the Grenadines,VCT,Saint Vincent and the Grenadines,NA,6. Developing region,3. Upper middle income,,North America,Americas,Caribbean,Latin America & Caribbean,-61.2010643785882,13.2486328125
Venezuela,,VEN,,"Venezuela, RB",NA,Sovereign country,Venezuela,VEN,Bolivarian Republic of Venezuela,NA,5. Emerging region: G20,3. Upper middle income,,South America,Americas,South America,Latin America & Caribbean,-65.4125643687341,6.4158203125
British Virgin Islands,,VGB,,British Virgin Islands,NA,Dependency,United Kingdom,GB1,British Virgin Islands,NA,2. Developed region: nonG7,1. High income: OECD,,North America,Americas,Caribbean,Latin America & Caribbean,-64.6197649025417,18.42490234375
United States Virgin Islands,,VIR,,Virgin Islands (U.S.),NA,Dependency,United States of America,US1,Virgin Islands of the United States,NA,6. Developing region,2. High income: nonOECD,,North America,Americas,Caribbean,Latin America & Caribbean,-64.7604192713965,17.7281494140625
Vietnam,,VNM,,Vietnam,NA,Sovereign country,Vietnam,VNM,Socialist Republic of Vietnam,NA,5. Emerging region: G20,4. Lower middle income,,Asia,Asia,South-Eastern Asia,East Asia & Pacific,107.851453884047,15.970361328125
Vanuatu,,VUT,,Vanuatu,NA,Sovereign country,Vanuatu,VUT,Republic of Vanuatu,NA,7. Least developed region,4. Lower middle income,,Oceania,Oceania,Melanesia,East Asia & Pacific,168.356242014105,-17.66474609375
Wallis and Futuna,,WLF,,Wallis and Futuna,NA,Dependency,France,FR1,Wallis and Futuna Islands,NA,6. Developing region,4. Lower middle income,,Oceania,Oceania,Polynesia,East Asia & Pacific,-178.151575274579,-14.26982421875
Samoa,,WSM,,Samoa,NA,Sovereign country,Samoa,WSM,Independent State of Samoa,NA,7. Least developed region,4. Lower middle income,,Oceania,Oceania,Polynesia,East Asia & Pacific,-172.452165876116,-13.611767578125
Yemen,,YEM,,"Yemen, Rep.",NA,Sovereign country,Yemen,YEM,Republic of Yemen,NA,7. Least developed region,4. Lower middle income,,Asia,Asia,Western Asia,Middle East & North Africa,47.4907279061105,15.8587158203125
South Africa,,ZAF,,South Africa,NA,Sovereign country,South Africa,ZAF,Republic of South Africa,NA,5. Emerging region: G20,3. Upper middle income,,Africa,Africa,Southern Africa,Sub-Saharan Africa,26.0946205750128,-28.47021484375
Zambia,,ZMB,,Zambia,NA,Sovereign country,Zambia,ZMB,Republic of Zambia,NA,7. Least developed region,4. Lower middle income,,Africa,Africa,Eastern Africa,Sub-Saharan Africa,25.4134048225506,-13.10185546875
Zimbabwe,,ZWE,,Zimbabwe,NA,Sovereign country,Zimbabwe,ZWE,Republic of Zimbabwe,NA,5. Emerging region: G20,5. Low income,,Africa,Africa,Eastern Africa,Sub-Saharan Africa,29.3490554437405,-19.0130859375
